{
  "Logging": {
    "LogLevel": {
      "Default": "Information",
      "Microsoft.AspNetCore": "Warning"
    }
  },
  "AllowedHosts": "*",
  "GoogleMaps": {
    "ApiKey": "AIzaSyDqFom_2udOhNrThRdcOvCfIB9Q5ELFuQU"
  },
  "Authentication": {
    "Google": {
      "Authority": "https://accounts.google.com/",
      "ClientId": "814225410383-jndkpnvhu6r0ersrv8gla3ldsoanf6m7.apps.googleusercontent.com",
      "PostLogoutRedirectUri": "/",
      "ResponseType": "id_token"
    }
  },
  "WeatherProviders": {
    "MetMalaysia": {
      "Enabled": true,
      "Name": "Open-Meteo (CORS)",
      "Source": "Open-Meteo.com",
      "Endpoint": "https://api.open-meteo.com/v1/forecast?latitude={lat}&longitude={lon}&current_weather=true&hourly=temperature_2m,precipitation_probability,precipitation&timezone=auto",
      "ApiKey": ""
    },
    "Radar": {
      "Enabled": false,
      "Endpoint": "https://api.met.gov.my/v2/weather/radar/nowcast?lat={lat}&lon={lon}"
    },
    "Outlooks": [
      {
        "Name": "Open-Meteo Daily",
        "Source": "open-meteo.com",
        "Enabled": true,
        "Endpoint": "https://api.open-meteo.com/v1/forecast?latitude={lat}&longitude={lon}&daily=temperature_2m_max,precipitation_probability_max&timezone=auto"
      }
    ]
  },
  "TransportProviders": [
    {
      "Name": "Rapid Bus Penang",
      "Endpoint": "https://api.data.gov.my/gtfs-realtime/vehicle-position/prasarana?category=rapid-bus-penang",
      "CenterLat": 5.4141,
      "CenterLng": 100.3288,
      "RadiusKm": 60
    },
    {
      "Name": "Rapid Bus KL",
      "Endpoint": "https://api.data.gov.my/gtfs-realtime/vehicle-position/prasarana?category=rapid-bus-kl",
      "CenterLat": 3.1390,
      "CenterLng": 101.6869,
      "RadiusKm": 60
    },
    {
      "Name": "Rapid Bus MRT Feeder",
      "Endpoint": "https://api.data.gov.my/gtfs-realtime/vehicle-position/prasarana?category=rapid-bus-mrtfeeder",
      "CenterLat": 3.1390,
      "CenterLng": 101.6869,
      "RadiusKm": 60
    },
    {
      "Name": "Rapid Bus Kuantan",
      "Endpoint": "https://api.data.gov.my/gtfs-realtime/vehicle-position/prasarana?category=rapid-bus-kuantan",
      "CenterLat": 3.8077,
      "CenterLng": 103.3260,
      "RadiusKm": 40
    },
    {
      "Name": "KTMB National Rail",
      "Endpoint": "https://api.data.gov.my/gtfs-realtime/vehicle-position/ktmb",
      "CenterLat": 3.1344,
      "CenterLng": 101.6865,
      "RadiusKm": 500
    },
    {
      "Name": "BAS.MY Kangar",
      "Endpoint": "https://api.data.gov.my/gtfs-realtime/vehicle-position/mybas-kangar",
      "CenterLat": 6.4409,
      "CenterLng": 100.1978,
      "RadiusKm": 40
    },
    {
      "Name": "BAS.MY Alor Setar",
      "Endpoint": "https://api.data.gov.my/gtfs-realtime/vehicle-position/mybas-alor-setar",
      "CenterLat": 6.1200,
      "CenterLng": 100.3700,
      "RadiusKm": 40
    },
    {
      "Name": "BAS.MY Kota Bharu",
      "Endpoint": "https://api.data.gov.my/gtfs-realtime/vehicle-position/mybas-kota-bharu",
      "CenterLat": 6.1254,
      "CenterLng": 102.2386,
      "RadiusKm": 40
    },
    {
      "Name": "BAS.MY Kuala Terengganu",
      "Endpoint": "https://api.data.gov.my/gtfs-realtime/vehicle-position/mybas-kuala-terengganu",
      "CenterLat": 5.3302,
      "CenterLng": 103.1408,
      "RadiusKm": 40
    },
    {
      "Name": "BAS.MY Ipoh",
      "Endpoint": "https://api.data.gov.my/gtfs-realtime/vehicle-position/mybas-ipoh",
      "CenterLat": 4.5975,
      "CenterLng": 101.0901,
      "RadiusKm": 40
    },
    {
      "Name": "BAS.MY Seremban (A)",
      "Endpoint": "https://api.data.gov.my/gtfs-realtime/vehicle-position/mybas-seremban-a",
      "CenterLat": 2.7258,
      "CenterLng": 101.9424,
      "RadiusKm": 40
    },
    {
      "Name": "BAS.MY Seremban (B)",
      "Endpoint": "https://api.data.gov.my/gtfs-realtime/vehicle-position/mybas-seremban-b",
      "CenterLat": 2.7258,
      "CenterLng": 101.9424,
      "RadiusKm": 40
    },
    {
      "Name": "BAS.MY Melaka",
      "Endpoint": "https://api.data.gov.my/gtfs-realtime/vehicle-position/mybas-melaka",
      "CenterLat": 2.1896,
      "CenterLng": 102.2501,
      "RadiusKm": 40
    },
    {
      "Name": "BAS.MY Johor Bahru",
      "Endpoint": "https://api.data.gov.my/gtfs-realtime/vehicle-position/mybas-johor",
      "CenterLat": 1.4927,
      "CenterLng": 103.7414,
      "RadiusKm": 60
    },
    {
      "Name": "BAS.MY Kuching",
      "Endpoint": "https://api.data.gov.my/gtfs-realtime/vehicle-position/mybas-kuching",
      "CenterLat": 1.5533,
      "CenterLng": 110.3592,
      "RadiusKm": 50
    }
  ],
  "MapSettings": {
    "FallbackLatitude": 1.4632,
    "FallbackLongitude": 103.7644
  }
}
